{"businesses":[{"id":"dddTPy1PUq9rA4Zur7UcYA","alias":"putia-pure-food-brisbane","name":"Putia Pure Food","image_url":"https://s3-media4.fl.yelpcdn.com/bphoto/0wNX6WrkLWs8ez3fSAMeyg/o.jpg","is_closed":false,"url":"https://www.yelp.com/biz/putia-pure-food-brisbane?adjust_creative=uwH-kj2Icx6t3jxOi2DXww&utm_campaign=yelp_api_v3&utm_medium=api_v3_business_search&utm_source=uwH-kj2Icx6t3jxOi2DXww","review_count":7,"categories":[{"alias":"cookingschools","title":"Cooking Schools"},{"alias":"breakfast_brunch","title":"Breakfast & Brunch"}],"rating":4,"coordinates":{"latitude":-27.3749518,"longitude":153.076987},"transactions":[],"price":"$$","location":{"address1":"Shop 4","address2":"17 Royal Parade Banyo","address3":"","city":"Brisbane","zip_code":"4014","country":"AU","state":"QLD","display_address":["Shop 4","17 Royal Parade Banyo","Brisbane Queensland 4014","Australia"]},"phone":"+61732676654","display_phone":"+61 7 3267 6654","distance":151.93131597948982},{"id":"fSBiprzfjUEP2s-6ZhRgQA","alias":"budgies-pizza-banyo","name":"Budgie's Pizza","image_url":"https://s3-media2.fl.yelpcdn.com/bphoto/S4yf2QhpVohSdI2puTdBRg/o.jpg","is_closed":false,"url":"https://www.yelp.com/biz/budgies-pizza-banyo?adjust_creative=uwH-kj2Icx6t3jxOi2DXww&utm_campaign=yelp_api_v3&utm_medium=api_v3_business_search&utm_source=uwH-kj2Icx6t3jxOi2DXww","review_count":4,"categories":[{"alias":"hotdogs","title":"Fast Food"},{"alias":"pizza","title":"Pizza"}],"rating":4,"coordinates":{"latitude":-27.375698,"longitude":153.07773},"transactions":[],"price":"$$","location":{"address1":"213 Tufnell Rd","address2":null,"address3":null,"city":"Banyo","zip_code":"4014","country":"AU","state":"QLD","display_address":["213 Tufnell Rd","Banyo Queensland 4014","Australia"]},"phone":"+61732673000","display_phone":"+61 7 3267 3000","distance":174.09309478810658},{"id":"X6S1EdZExlSjAXtntb1Oiw","alias":"site-cafe-banyo","name":"Site Cafe","image_url":"https://s3-media2.fl.yelpcdn.com/bphoto/F2_yjtKUzvDme_1QmHN9LQ/o.jpg","is_closed":false,"url":"https://www.yelp.com/biz/site-cafe-banyo?adjust_creative=uwH-kj2Icx6t3jxOi2DXww&utm_campaign=yelp_api_v3&utm_medium=api_v3_business_search&utm_source=uwH-kj2Icx6t3jxOi2DXww","review_count":4,"categories":[{"alias":"cafes","title":"Cafes"}],"rating":4.5,"coordinates":{"latitude":-27.3749386,"longitude":153.0775202},"transactions":[],"price":"$$","location":{"address1":"Unit 3","address2":"272 St Vincents Rd","address3":null,"city":"Banyo","zip_code":"4014","country":"AU","state":"QLD","display_address":["Unit 3","272 St Vincents Rd","Banyo Queensland 4014","Australia"]},"phone":"+61732673082","display_phone":"+61 7 3267 3082","distance":190.94942318453064},{"id":"nTDVw-R7XREbv-sd1jsQwA","alias":"haleys-bakery-banyo","name":"Haleys Bakery","image_url":"https://s3-media4.fl.yelpcdn.com/bphoto/i3sjlAqNr41rSRP4I9Xd1A/o.jpg","is_closed":false,"url":"https://www.yelp.com/biz/haleys-bakery-banyo?adjust_creative=uwH-kj2Icx6t3jxOi2DXww&utm_campaign=yelp_api_v3&utm_medium=api_v3_business_search&utm_source=uwH-kj2Icx6t3jxOi2DXww","review_count":1,"categories":[{"alias":"bakeries","title":"Bakeries"}],"rating":3,"coordinates":{"latitude":-27.375198,"longitude":153.077934},"transactions":[],"location":{"address1":"299 St Vincents Rd","address2":"","address3":"","city":"Banyo","zip_code":"4014","country":"AU","state":"QLD","display_address":["299 St Vincents Rd","Banyo Queensland 4014","Australia"]},"phone":"+61732675972","display_phone":"+61 7 3267 5972","distance":210.76370892020446},{"id":"eIqXeUnyfUgIHEraZ9w7Pw","alias":"sushi-kiyo-banyo-2","name":"Sushi Kiyo","image_url":"https://s3-media1.fl.yelpcdn.com/bphoto/Wj2gNRvS9vKUdU7bFr_qbg/o.jpg","is_closed":false,"url":"https://www.yelp.com/biz/sushi-kiyo-banyo-2?adjust_creative=uwH-kj2Icx6t3jxOi2DXww&utm_campaign=yelp_api_v3&utm_medium=api_v3_business_search&utm_source=uwH-kj2Icx6t3jxOi2DXww","review_count":5,"categories":[{"alias":"sushi","title":"Sushi Bars"}],"rating":4,"coordinates":{"latitude":-27.37683,"longitude":153.07676},"transactions":[],"location":{"address1":"207-279 Tufnell Rd","address2":"","address3":null,"city":"Banyo","zip_code":"4014","country":"AU","state":"QLD","display_address":["207-279 Tufnell Rd","Banyo Queensland 4014","Australia"]},"phone":"","display_phone":"","distance":218.67943384250762},{"id":"n9nhosJKqfeSPsSnt-qp-g","alias":"stellarossa-banyo-banyo","name":"Stellarossa Banyo","image_url":"https://s3-media3.fl.yelpcdn.com/bphoto/Pred6cQ0KnReBXBb4ARkYw/o.jpg","is_closed":false,"url":"https://www.yelp.com/biz/stellarossa-banyo-banyo?adjust_creative=uwH-kj2Icx6t3jxOi2DXww&utm_campaign=yelp_api_v3&utm_medium=api_v3_business_search&utm_source=uwH-kj2Icx6t3jxOi2DXww","review_count":1,"categories":[{"alias":"breakfast_brunch","title":"Breakfast & Brunch"},{"alias":"coffee","title":"Coffee & Tea"}],"rating":3,"coordinates":{"latitude":-27.37645,"longitude":153.07698},"transactions":[],"location":{"address1":"Shop 14","address2":"207-279 Tufnell Rd","address3":null,"city":"Banyo","zip_code":"4014","country":"AU","state":"QLD","display_address":["Shop 14","207-279 Tufnell Rd","Banyo Queensland 4014","Australia"]},"phone":"+61732673109","display_phone":"+61 7 3267 3109","distance":218.67943384250762},{"id":"-wm8UomKR7Bx1k9gsCVz7w","alias":"singhs-curry-hut-northgate","name":"Singhs Curry Hut","image_url":"","is_closed":false,"url":"https://www.yelp.com/biz/singhs-curry-hut-northgate?adjust_creative=uwH-kj2Icx6t3jxOi2DXww&utm_campaign=yelp_api_v3&utm_medium=api_v3_business_search&utm_source=uwH-kj2Icx6t3jxOi2DXww","review_count":3,"categories":[{"alias":"indpak","title":"Indian"}],"rating":4.5,"coordinates":{"latitude":-27.374759,"longitude":153.078228},"transactions":[],"price":"$$","location":{"address1":"303 St Vincents Rd","address2":"","address3":null,"city":"Northgate","zip_code":"4014","country":"AU","state":"QLD","display_address":["303 St Vincents Rd","Northgate Queensland 4014","Australia"]},"phone":"+61732670622","display_phone":"+61 7 3267 0622","distance":259.6944072260691},{"id":"R73BatCE1juQhA-B4yFeYg","alias":"banyo-memorial-park-brisbane","name":"Banyo Memorial Park","image_url":"","is_closed":false,"url":"https://www.yelp.com/biz/banyo-memorial-park-brisbane?adjust_creative=uwH-kj2Icx6t3jxOi2DXww&utm_campaign=yelp_api_v3&utm_medium=api_v3_business_search&utm_source=uwH-kj2Icx6t3jxOi2DXww","review_count":1,"categories":[{"alias":"parks","title":"Parks"}],"rating":3,"coordinates":{"latitude":-27.37408,"longitude":153.078741},"transactions":[],"location":{"address1":"284 St Vincents Rd","address2":"","address3":"","city":"Brisbane","zip_code":"4014","country":"AU","state":"QLD","display_address":["284 St Vincents Rd","Brisbane Queensland 4014","Australia"]},"phone":"","display_phone":"","distance":344.7219230297746},{"id":"X4ZYcBikCwF8kF1_8ziv4Q","alias":"in-n-out-cafe-banyo","name":"In-n-out Cafe","image_url":"","is_closed":false,"url":"https://www.yelp.com/biz/in-n-out-cafe-banyo?adjust_creative=uwH-kj2Icx6t3jxOi2DXww&utm_campaign=yelp_api_v3&utm_medium=api_v3_business_search&utm_source=uwH-kj2Icx6t3jxOi2DXww","review_count":1,"categories":[{"alias":"cafes","title":"Cafes"}],"rating":4,"coordinates":{"latitude":-27.3790728,"longitude":153.0821581},"transactions":[],"location":{"address1":"1/368 Earnshaw Rd","address2":"","address3":"","city":"Banyo","zip_code":"4014","country":"AU","state":"QLD","display_address":["1/368 Earnshaw Rd","Banyo Queensland 4014","Australia"]},"phone":"+61731722094","display_phone":"+61 7 3172 2094","distance":697.4771752959235},{"id":"6YkEn6gmS1nq8mSXjSOarw","alias":"dancing-bean-espresso-bar-banyo-2","name":"Dancing Bean Espresso Bar","image_url":"","is_closed":false,"url":"https://www.yelp.com/biz/dancing-bean-espresso-bar-banyo-2?adjust_creative=uwH-kj2Icx6t3jxOi2DXww&utm_campaign=yelp_api_v3&utm_medium=api_v3_business_search&utm_source=uwH-kj2Icx6t3jxOi2DXww","review_count":1,"categories":[{"alias":"coffee","title":"Coffee & Tea"}],"rating":4,"coordinates":{"latitude":-27.383239,"longitude":153.078051},"transactions":[],"location":{"address1":"25 Depot St","address2":"Unit 6","address3":null,"city":"Banyo","zip_code":"4014","country":"AU","state":"QLD","display_address":["25 Depot St","Unit 6","Banyo Queensland 4014","Australia"]},"phone":"+61732666510","display_phone":"+61 7 3266 6510","distance":830.0232474965084},{"id":"z5C8xwQZRvNEdUTMqA7XkQ","alias":"kitchen-8-northgate","name":"Kitchen 8","image_url":"https://s3-media1.fl.yelpcdn.com/bphoto/d0Q4CWbq2pR-Kbvoe0zeIw/o.jpg","is_closed":false,"url":"https://www.yelp.com/biz/kitchen-8-northgate?adjust_creative=uwH-kj2Icx6t3jxOi2DXww&utm_campaign=yelp_api_v3&utm_medium=api_v3_business_search&utm_source=uwH-kj2Icx6t3jxOi2DXww","review_count":3,"categories":[{"alias":"breakfast_brunch","title":"Breakfast & Brunch"},{"alias":"australian","title":"Australian"},{"alias":"burgers","title":"Burgers"}],"rating":5,"coordinates":{"latitude":-27.3868143964436,"longitude":153.078148645403},"transactions":[],"price":"$$","location":{"address1":"Unit 20","address2":"62 Crockford St","address3":null,"city":"Northgate","zip_code":"4013","country":"AU","state":"QLD","display_address":["Unit 20","62 Crockford St","Northgate Queensland 4013","Australia"]},"phone":"+61731721676","display_phone":"+61 7 3172 1676","distance":1221.0755641491485},{"id":"_IJsY2V-_95t3NkE8XUsDQ","alias":"vend-virginia","name":"Vend","image_url":"https://s3-media3.fl.yelpcdn.com/bphoto/zdfjZJmduQt8-kTzy39rig/o.jpg","is_closed":false,"url":"https://www.yelp.com/biz/vend-virginia?adjust_creative=uwH-kj2Icx6t3jxOi2DXww&utm_campaign=yelp_api_v3&utm_medium=api_v3_business_search&utm_source=uwH-kj2Icx6t3jxOi2DXww","review_count":1,"categories":[{"alias":"publicmarkets","title":"Public Markets"},{"alias":"cafes","title":"Cafes"}],"rating":4,"coordinates":{"latitude":-27.3783728715562,"longitude":153.062005461388},"transactions":[],"location":{"address1":"1760 Sandgate Rd","address2":"","address3":null,"city":"Virginia","zip_code":"4014","country":"AU","state":"QLD","display_address":["1760 Sandgate Rd","Virginia Queensland 4014","Australia"]},"phone":"","display_phone":"","distance":1406.7969976792374},{"id":"LvtZWfcwR46WkyzFjE6D2g","alias":"arlington-oriental-restaurant-virginia","name":"Arlington Oriental Restaurant","image_url":"","is_closed":false,"url":"https://www.yelp.com/biz/arlington-oriental-restaurant-virginia?adjust_creative=uwH-kj2Icx6t3jxOi2DXww&utm_campaign=yelp_api_v3&utm_medium=api_v3_business_search&utm_source=uwH-kj2Icx6t3jxOi2DXww","review_count":1,"categories":[{"alias":"chinese","title":"Chinese"}],"rating":4,"coordinates":{"latitude":-27.38274,"longitude":153.0643768},"transactions":[],"location":{"address1":"Shop 10","address2":"7 Toombul Rd","address3":"","city":"Virginia","zip_code":"4014","country":"AU","state":"QLD","display_address":["Shop 10","7 Toombul Rd","Virginia Queensland 4014","Australia"]},"phone":"+6132662638","display_phone":"+61 32662638","distance":1446.8360535432787},{"id":"ORCrwhuopBIHahVDizayaw","alias":"toombul-road-snack-bar-northgate","name":"Toombul Road Snack Bar","image_url":"","is_closed":false,"url":"https://www.yelp.com/biz/toombul-road-snack-bar-northgate?adjust_creative=uwH-kj2Icx6t3jxOi2DXww&utm_campaign=yelp_api_v3&utm_medium=api_v3_business_search&utm_source=uwH-kj2Icx6t3jxOi2DXww","review_count":1,"categories":[{"alias":"hotdogs","title":"Fast Food"},{"alias":"burgers","title":"Burgers"}],"rating":3,"coordinates":{"latitude":-27.388413,"longitude":153.068982},"transactions":[],"location":{"address1":"104 Toombul Rd","address2":null,"address3":null,"city":"Northgate","zip_code":"4013","country":"AU","state":"QLD","display_address":["104 Toombul Rd","Northgate Queensland 4013","Australia"]},"phone":"+61732669218","display_phone":"+61 7 3266 9218","distance":1544.4335440159205},{"id":"08lXgiA0MCinUd39jfX-kg","alias":"mcdonalds-virginia-2","name":"McDonald's","image_url":"https://s3-media3.fl.yelpcdn.com/bphoto/sGpSdvzL145AO3oXFa7wZg/o.jpg","is_closed":false,"url":"https://www.yelp.com/biz/mcdonalds-virginia-2?adjust_creative=uwH-kj2Icx6t3jxOi2DXww&utm_campaign=yelp_api_v3&utm_medium=api_v3_business_search&utm_source=uwH-kj2Icx6t3jxOi2DXww","review_count":3,"categories":[{"alias":"burgers","title":"Burgers"},{"alias":"hotdogs","title":"Fast Food"}],"rating":2.5,"coordinates":{"latitude":-27.370708,"longitude":153.061474},"transactions":[],"location":{"address1":"18 Robinson Rd East","address2":null,"address3":null,"city":"Virginia","zip_code":"4014","country":"AU","state":"QLD","display_address":["18 Robinson Rd East","Virginia Queensland 4014","Australia"]},"phone":"+61738653057","display_phone":"+61 7 3865 3057","distance":1550.3710781067753},{"id":"woR17c0-riy5fg9xRcODpA","alias":"oriental-kitchen-banyo-2","name":"Oriental Kitchen","image_url":"https://s3-media4.fl.yelpcdn.com/bphoto/PQG2Nfmx_zr_tGaf9H9NqA/o.jpg","is_closed":false,"url":"https://www.yelp.com/biz/oriental-kitchen-banyo-2?adjust_creative=uwH-kj2Icx6t3jxOi2DXww&utm_campaign=yelp_api_v3&utm_medium=api_v3_business_search&utm_source=uwH-kj2Icx6t3jxOi2DXww","review_count":2,"categories":[{"alias":"chinese","title":"Chinese"}],"rating":2.5,"coordinates":{"latitude":-27.38287,"longitude":153.09035},"transactions":[],"location":{"address1":"1022 Nudgee Rd","address2":null,"address3":null,"city":"Banyo","zip_code":"4014","country":"AU","state":"QLD","display_address":["1022 Nudgee Rd","Banyo Queensland 4014","Australia"]},"phone":"+61732670755","display_phone":"+61 7 3267 0755","distance":1611.6751492128585},{"id":"KWT_NtfXBtjxX6LB_QkO2g","alias":"banyo-chicken-n-burger-inn-banyo","name":"Banyo Chicken N Burger Inn","image_url":"","is_closed":false,"url":"https://www.yelp.com/biz/banyo-chicken-n-burger-inn-banyo?adjust_creative=uwH-kj2Icx6t3jxOi2DXww&utm_campaign=yelp_api_v3&utm_medium=api_v3_business_search&utm_source=uwH-kj2Icx6t3jxOi2DXww","review_count":2,"categories":[{"alias":"hotdogs","title":"Fast Food"},{"alias":"burgers","title":"Burgers"},{"alias":"coffee","title":"Coffee & Tea"}],"rating":2,"coordinates":{"latitude":-27.382937,"longitude":153.090587},"transactions":[],"location":{"address1":"1022 Nudgee Rd","address2":"Shop 5","address3":null,"city":"Banyo","zip_code":"4014","country":"AU","state":"QLD","display_address":["1022 Nudgee Rd","Shop 5","Banyo Queensland 4014","Australia"]},"phone":"+61732678777","display_phone":"+61 7 3267 8777","distance":1633.8499196334367},{"id":"GrHcEw44RUp9ZnngJgfbSQ","alias":"kristos-kababs-virginia","name":"Kristo's Kababs","image_url":"https://s3-media3.fl.yelpcdn.com/bphoto/IGLCfJddx9ZPSuHWMY-yBQ/o.jpg","is_closed":false,"url":"https://www.yelp.com/biz/kristos-kababs-virginia?adjust_creative=uwH-kj2Icx6t3jxOi2DXww&utm_campaign=yelp_api_v3&utm_medium=api_v3_business_search&utm_source=uwH-kj2Icx6t3jxOi2DXww","review_count":6,"categories":[{"alias":"hotdogs","title":"Fast Food"}],"rating":4.5,"coordinates":{"latitude":-27.383945,"longitude":153.061827},"transactions":[],"price":"$","location":{"address1":"1670 Sandgate Road","address2":"","address3":"","city":"Virginia","zip_code":"4014","country":"AU","state":"QLD","display_address":["1670 Sandgate Road","Virginia Queensland 4014","Australia"]},"phone":"+61738619590","display_phone":"+61 7 3861 9590","distance":1654.9450313931686},{"id":"swzFjPFn55R_pCjY5yPO5Q","alias":"cafe-d-lish-and-carvery-takeaway-banyo","name":"Cafe D'Lish & Carvery Takeaway","image_url":"https://s3-media4.fl.yelpcdn.com/bphoto/JtVOVi9tRtyCpFhZmnY04A/o.jpg","is_closed":false,"url":"https://www.yelp.com/biz/cafe-d-lish-and-carvery-takeaway-banyo?adjust_creative=uwH-kj2Icx6t3jxOi2DXww&utm_campaign=yelp_api_v3&utm_medium=api_v3_business_search&utm_source=uwH-kj2Icx6t3jxOi2DXww","review_count":2,"categories":[{"alias":"hotdogs","title":"Fast Food"}],"rating":2.5,"coordinates":{"latitude":-27.383284,"longitude":153.090896},"transactions":[],"location":{"address1":"11 Buchanan Rd","address2":"Lot 27","address3":null,"city":"Banyo","zip_code":"4014","country":"AU","state":"QLD","display_address":["11 Buchanan Rd","Lot 27","Banyo Queensland 4014","Australia"]},"phone":"+61732675826","display_phone":"+61 7 3267 5826","distance":1679.074631174976},{"id":"GzNUYhpR0l01oLOQ0DDX3g","alias":"trawler-fresh-seafoods-virginia","name":"Trawler Fresh Seafoods","image_url":"https://s3-media2.fl.yelpcdn.com/bphoto/B1IinDiJI2brdauo3tAxgg/o.jpg","is_closed":false,"url":"https://www.yelp.com/biz/trawler-fresh-seafoods-virginia?adjust_creative=uwH-kj2Icx6t3jxOi2DXww&utm_campaign=yelp_api_v3&utm_medium=api_v3_business_search&utm_source=uwH-kj2Icx6t3jxOi2DXww","review_count":7,"categories":[{"alias":"hotdogs","title":"Fast Food"},{"alias":"seafood","title":"Seafood"}],"rating":3,"coordinates":{"latitude":-27.38403,"longitude":153.061588},"transactions":[],"price":"$","location":{"address1":"1666 Sandgate Rd","address2":null,"address3":null,"city":"Virginia","zip_code":"4014","country":"AU","state":"QLD","display_address":["1666 Sandgate Rd","Virginia Queensland 4014","Australia"]},"phone":"+61732605356","display_phone":"+61 7 3260 5356","distance":1679.9511271691238}],"total":96,"region":{"center":{"longitude":153.076,"latitude":-27.376}}}